[
  {
    "id": "v-001",
    "name": "아이러브펫동물병원 신도림점",
    "lat": 37.50964,
    "lng": 126.8884633,
    "address": "구로구",
    "vet": true
  },
  {
    "id": "v-002",
    "name": "신도림동물병원",
    "lat": 37.5092416,
    "lng": 126.8877351,
    "address": "구로구",
    "vet": true
  },
  {
    "id": "v-003",
    "name": "구로종합동물병원",
    "lat": 37.5071591,
    "lng": 126.8861224,
    "address": "구로구",
    "vet": true
  },
  {
    "id": "v-004",
    "name": "24시 신도림S동물의료센터",
    "lat": 37.506657,
    "lng": 126.8843253,
    "address": "구로구",
    "vet": true
  },
  {
    "id": "v-005",
    "name": "다나은동물병원",
    "lat": 37.5060862,
    "lng": 126.8772416,
    "address": "구로구",
    "vet": true
  },
  {
    "id": "v-006",
    "name": "벨라동물병원",
    "lat": 37.5006272,
    "lng": 126.8846016,
    "address": "구로구",
    "vet": true
  },
  {
    "id": "v-007",
    "name": "24시지구촌 동물메디컬센터",
    "lat": 37.4982519,
    "lng": 126.8858662,
    "address": "구로구",
    "vet": true
  }
  ]